{
    "0": {
        "name": "不丹",
        "lng": 90.3327,
        "lat": 27.2923,
        "frequency": 0.00463
    },
    "1": {
        "name": "中国",
        "lng": 120.09462,
        "lat": 29.01674,
        "frequency": 0.00377
    },
    "2": {
        "name": "丹麦",
        "lng": 10.33269,
        "lat": 55.92287,
        "frequency": 0.00913
    },
    "3": {
        "name": "乌克兰",
        "lng": 29.55794,
        "lat": 49.11392,
        "frequency": 0.01157
    },
    "4": {
        "name": "乌兹别克斯坦",
        "lng": 67.81384,
        "lat": 40.05646,
        "frequency": 0.00223
    },
    "5": {
        "name": "乌干达",
        "lng": 32.53614,
        "lat": 0.40377,
        "frequency": 0.00233
    },
    "6": {
        "name": "乌拉圭",
        "lng": -56.08115,
        "lat": -33.513,
        "frequency": 0.00973
    },
    "7": {
        "name": "也门",
        "lng": 45.59073,
        "lat": 13.74906,
        "frequency": 0.00097
    },
    "8": {
        "name": "亚美尼亚",
        "lng": 44.74672,
        "lat": 40.17977,
        "frequency": 0.00097
    },
    "9": {
        "name": "以色列",
        "lng": 35.10004,
        "lat": 32.244,
        "frequency": 0.00577
    },
    "10": {
        "name": "伊拉克",
        "lng": 44.65043,
        "lat": 34.82093,
        "frequency": 0.00253
    },
    "11": {
        "name": "伊朗",
        "lng": 52.11528,
        "lat": 34.23477,
        "frequency": 0.00203
    },
    "12": {
        "name": "伯利兹",
        "lng": -88.56685,
        "lat": 17.49465,
        "frequency": 0.00027
    },
    "13": {
        "name": "佛得角",
        "lng": -23.91138,
        "lat": 16.27635,
        "frequency": 0.0006
    },
    "14": {
        "name": "俄罗斯",
        "lng": 60.58365,
        "lat": 54.21851,
        "frequency": 0.0346
    },
    "15": {
        "name": "保加利亚",
        "lng": 25.09138,
        "lat": 42.66693,
        "frequency": 0.0096
    },
    "16": {
        "name": "克罗地亚",
        "lng": 16.27505,
        "lat": 45.04512,
        "frequency": 0.00833
    },
    "17": {
        "name": "冈比亚",
        "lng": -16.44557,
        "lat": 13.41408,
        "frequency": 0.0005
    },
    "18": {
        "name": "冰岛",
        "lng": -19.41896,
        "lat": 65.02021,
        "frequency": 0.00383
    },
    "19": {
        "name": "几内亚",
        "lng": -13.3908,
        "lat": 9.97631,
        "frequency": 0.00037
    },
    "20": {
        "name": "刚果共和国",
        "lng": 13.65847,
        "lat": -4.09823,
        "frequency": 0.0008
    },
    "21": {
        "name": "刚果民主共和国",
        "lng": 19.36769,
        "lat": -3.28757,
        "frequency": 0.00033
    },
    "22": {
        "name": "利比亚",
        "lng": 16.35115,
        "lat": 32.38242,
        "frequency": 0.0006
    },
    "23": {
        "name": "利比里亚",
        "lng": -10.51707,
        "lat": 6.24564,
        "frequency": 0.0007
    },
    "24": {
        "name": "加拿大",
        "lng": -93.8009,
        "lat": 49.88541,
        "frequency": 0.02897
    },
    "25": {
        "name": "加纳",
        "lng": -1.14101,
        "lat": 7.38651,
        "frequency": 0.0024
    },
    "26": {
        "name": "匈牙利",
        "lng": 19.27952,
        "lat": 47.27976,
        "frequency": 0.0086
    },
    "27": {
        "name": "北马其顿",
        "lng": 21.72192,
        "lat": 41.6971,
        "frequency": 0.00273
    },
    "28": {
        "name": "北马里亚纳群岛",
        "lng": 145.70773,
        "lat": 15.10179,
        "frequency": 0.00067
    },
    "29": {
        "name": "南苏丹",
        "lng": 32.41937,
        "lat": 6.59361,
        "frequency": 0.00027
    },
    "30": {
        "name": "南非",
        "lng": 26.28871,
        "lat": -28.63479,
        "frequency": 0.02463
    },
    "31": {
        "name": "博茨瓦纳",
        "lng": 24.7095,
        "lat": -22.33066,
        "frequency": 0.0067
    },
    "32": {
        "name": "卡塔尔",
        "lng": 51.44022,
        "lat": 25.31007,
        "frequency": 0.00107
    },
    "33": {
        "name": "卢旺达",
        "lng": 30.09649,
        "lat": -2.15552,
        "frequency": 0.00067
    },
    "34": {
        "name": "卢森堡",
        "lng": 6.0638,
        "lat": 49.78346,
        "frequency": 0.00267
    },
    "35": {
        "name": "印度",
        "lng": 78.18809,
        "lat": 22.10505,
        "frequency": 0.01427
    },
    "36": {
        "name": "印度尼西亚",
        "lng": 111.31273,
        "lat": -4.05509,
        "frequency": 0.02683
    },
    "37": {
        "name": "危地马拉",
        "lng": -90.60853,
        "lat": 14.91042,
        "frequency": 0.00933
    },
    "38": {
        "name": "厄瓜多尔",
        "lng": -79.25419,
        "lat": -1.529,
        "frequency": 0.00283
    },
    "39": {
        "name": "叙利亚",
        "lng": 36.52008,
        "lat": 34.66848,
        "frequency": 0.0017
    },
    "40": {
        "name": "古巴",
        "lng": -79.58635,
        "lat": 22.04218,
        "frequency": 0.001
    },
    "41": {
        "name": "吉尔吉斯斯坦",
        "lng": 74.92687,
        "lat": 42.09991,
        "frequency": 0.00647
    },
    "42": {
        "name": "哈萨克斯坦",
        "lng": 67.74159,
        "lat": 47.77432,
        "frequency": 0.0026
    },
    "43": {
        "name": "哥伦比亚",
        "lng": -74.64559,
        "lat": 5.83372,
        "frequency": 0.0098
    },
    "44": {
        "name": "喀麦隆",
        "lng": 11.6633,
        "lat": 6.00484,
        "frequency": 0.00067
    },
    "45": {
        "name": "土耳其",
        "lng": 33.91824,
        "lat": 39.13856,
        "frequency": 0.01783
    },
    "46": {
        "name": "圣卢西亚",
        "lng": -60.97286,
        "lat": 13.93796,
        "frequency": 0.00053
    },
    "47": {
        "name": "圣基茨和尼维斯",
        "lng": -62.71656,
        "lat": 17.28266,
        "frequency": 0.00037
    },
    "48": {
        "name": "圣多美和普林西比",
        "lng": 7.87942,
        "lat": 1.13533,
        "frequency": 0.00073
    },
    "49": {
        "name": "埃及",
        "lng": 31.10775,
        "lat": 30.15262,
        "frequency": 0.0004
    },
    "50": {
        "name": "埃塞俄比亚",
        "lng": 39.28873,
        "lat": 9.24105,
        "frequency": 0.00103
    },
    "51": {
        "name": "塔吉克斯坦",
        "lng": 70.54782,
        "lat": 38.87709,
        "frequency": 0.00067
    },
    "52": {
        "name": "塞内加尔",
        "lng": -15.7903,
        "lat": 14.523,
        "frequency": 0.009
    },
    "53": {
        "name": "塞尔维亚",
        "lng": 20.80748,
        "lat": 44.44819,
        "frequency": 0.0065
    },
    "54": {
        "name": "塞拉利昂",
        "lng": -12.90459,
        "lat": 8.37166,
        "frequency": 0.00043
    },
    "55": {
        "name": "塞浦路斯",
        "lng": 33.18009,
        "lat": 34.93036,
        "frequency": 0.0004
    },
    "56": {
        "name": "塞舌尔",
        "lng": 55.52581,
        "lat": -4.6097,
        "frequency": 0.00057
    },
    "57": {
        "name": "墨西哥",
        "lng": -99.87461,
        "lat": 21.30084,
        "frequency": 0.02527
    },
    "58": {
        "name": "多哥",
        "lng": 1.03374,
        "lat": 7.07909,
        "frequency": 0.00053
    },
    "59": {
        "name": "多米尼克",
        "lng": -61.33068,
        "lat": 15.42829,
        "frequency": 0.00033
    },
    "60": {
        "name": "多米尼加共和国",
        "lng": -70.18988,
        "lat": 18.94179,
        "frequency": 0.00237
    },
    "61": {
        "name": "奥地利",
        "lng": 14.4785,
        "lat": 47.64369,
        "frequency": 0.00983
    },
    "62": {
        "name": "孟加拉国",
        "lng": 90.53016,
        "lat": 23.7472,
        "frequency": 0.00763
    },
    "63": {
        "name": "安哥拉",
        "lng": 14.02365,
        "lat": -10.95131,
        "frequency": 0.00063
    },
    "64": {
        "name": "安圭拉",
        "lng": -63.42487,
        "lat": 18.2706,
        "frequency": 0.0004
    },
    "65": {
        "name": "安提瓜和巴布达",
        "lng": -61.81795,
        "lat": 17.10153,
        "frequency": 0.00057
    },
    "66": {
        "name": "安道尔",
        "lng": 1.52748,
        "lat": 42.51938,
        "frequency": 0.00143
    },
    "67": {
        "name": "密克罗尼西亚",
        "lng": 147.15999,
        "lat": 8.27236,
        "frequency": 0.0003
    },
    "68": {
        "name": "尼加拉瓜",
        "lng": -85.89336,
        "lat": 12.18999,
        "frequency": 0.001
    },
    "69": {
        "name": "尼日利亚",
        "lng": 6.40617,
        "lat": 7.83854,
        "frequency": 0.00503
    },
    "70": {
        "name": "巴勒斯坦",
        "lng": 35.22279,
        "lat": 31.89625,
        "frequency": 0.00553
    },
    "71": {
        "name": "巴哈马",
        "lng": -76.95194,
        "lat": 25.33571,
        "frequency": 0.00083
    },
    "72": {
        "name": "巴基斯坦",
        "lng": 71.66728,
        "lat": 30.54183,
        "frequency": 0.00337
    },
    "73": {
        "name": "巴巴多斯",
        "lng": -59.53387,
        "lat": 13.16353,
        "frequency": 0.00057
    },
    "74": {
        "name": "巴布亚新几内亚",
        "lng": 147.68757,
        "lat": -8.36916,
        "frequency": 0.0003
    },
    "75": {
        "name": "巴拿马",
        "lng": -80.4645,
        "lat": 8.60388,
        "frequency": 0.00133
    },
    "76": {
        "name": "巴林",
        "lng": 50.56226,
        "lat": 26.14969,
        "frequency": 0.0004
    },
    "77": {
        "name": "巴西",
        "lng": -49.14533,
        "lat": -14.18873,
        "frequency": 0.03107
    },
    "78": {
        "name": "布基纳法索",
        "lng": -1.01531,
        "lat": 12.18472,
        "frequency": 0.00047
    },
    "79": {
        "name": "希腊",
        "lng": 22.82265,
        "lat": 38.71693,
        "frequency": 0.01297
    },
    "80": {
        "name": "帕劳",
        "lng": 134.53719,
        "lat": 7.43087,
        "frequency": 0.00057
    },
    "81": {
        "name": "库拉索",
        "lng": -68.95686,
        "lat": 12.11106,
        "frequency": 0.00113
    },
    "82": {
        "name": "开曼群岛",
        "lng": -81.27934,
        "lat": 19.31978,
        "frequency": 0.00047
    },
    "83": {
        "name": "德国",
        "lng": 10.00018,
        "lat": 50.73092,
        "frequency": 0.0059
    },
    "84": {
        "name": "意大利",
        "lng": 11.92143,
        "lat": 42.6931,
        "frequency": 0.01663
    },
    "85": {
        "name": "拉脱维亚",
        "lng": 25.07419,
        "lat": 56.87609,
        "frequency": 0.00723
    },
    "86": {
        "name": "挪威",
        "lng": 11.30703,
        "lat": 62.59397,
        "frequency": 0.01583
    },
    "87": {
        "name": "捷克",
        "lng": 15.44372,
        "lat": 49.69641,
        "frequency": 0.00953
    },
    "88": {
        "name": "摩尔多瓦",
        "lng": 28.66017,
        "lat": 47.18353,
        "frequency": 0.00043
    },
    "89": {
        "name": "摩洛哥",
        "lng": -7.04613,
        "lat": 32.42374,
        "frequency": 0.00107
    },
    "90": {
        "name": "摩纳哥",
        "lng": 7.42404,
        "lat": 43.73688,
        "frequency": 0.0007
    },
    "91": {
        "name": "文莱",
        "lng": 114.80291,
        "lat": 4.83852,
        "frequency": 0.00033
    },
    "92": {
        "name": "斐济",
        "lng": 178.09114,
        "lat": -17.79821,
        "frequency": 0.00037
    },
    "93": {
        "name": "斯威士兰",
        "lng": 31.38889,
        "lat": -26.57667,
        "frequency": 0.0038
    },
    "94": {
        "name": "斯洛伐克",
        "lng": 19.2336,
        "lat": 48.61463,
        "frequency": 0.00717
    },
    "95": {
        "name": "斯洛文尼亚",
        "lng": 14.94683,
        "lat": 46.16072,
        "frequency": 0.0052
    },
    "96": {
        "name": "斯里兰卡",
        "lng": 80.60049,
        "lat": 7.45972,
        "frequency": 0.00907
    },
    "97": {
        "name": "新加坡",
        "lng": 103.79766,
        "lat": 1.35297,
        "frequency": 0.002
    },
    "98": {
        "name": "新喀里多尼亚",
        "lng": 166.42971,
        "lat": -21.90832,
        "frequency": 0.00063
    },
    "99": {
        "name": "新西兰",
        "lng": 173.42003,
        "lat": -40.49862,
        "frequency": 0.01287
    },
    "100": {
        "name": "日本",
        "lng": 136.66181,
        "lat": 36.21938,
        "frequency": 0.0236
    },
    "101": {
        "name": "智利",
        "lng": -71.38535,
        "lat": -34.63368,
        "frequency": 0.01667
    },
    "102": {
        "name": "朝鲜",
        "lng": 125.75465,
        "lat": 38.96379,
        "frequency": 0.0004
    },
    "103": {
        "name": "柬埔寨",
        "lng": 104.80786,
        "lat": 12.40662,
        "frequency": 0.01143
    },
    "104": {
        "name": "根西岛",
        "lng": -2.53784,
        "lat": 49.4691,
        "frequency": 0.00053
    },
    "105": {
        "name": "格林纳达",
        "lng": -61.65746,
        "lat": 12.18598,
        "frequency": 0.00037
    },
    "106": {
        "name": "格陵兰",
        "lng": -50.26685,
        "lat": 67.23184,
        "frequency": 0.00153
    },
    "107": {
        "name": "格鲁吉亚",
        "lng": 42.98252,
        "lat": 42.17299,
        "frequency": 0.00053
    },
    "108": {
        "name": "梵蒂冈",
        "lng": 12.45233,
        "lat": 41.9053,
        "frequency": 0.00047
    },
    "109": {
        "name": "比利时",
        "lng": 4.60885,
        "lat": 50.7166,
        "frequency": 0.0067
    },
    "110": {
        "name": "毛里塔尼亚",
        "lng": -13.48396,
        "lat": 17.87958,
        "frequency": 0.0004
    },
    "111": {
        "name": "毛里求斯",
        "lng": 57.56587,
        "lat": -20.27379,
        "frequency": 0.00057
    },
    "112": {
        "name": "汤加",
        "lng": -174.9971,
        "lat": -20.77099,
        "frequency": 0.00063
    },
    "113": {
        "name": "沙特阿拉伯",
        "lng": 43.75081,
        "lat": 24.25803,
        "frequency": 0.0018
    },
    "114": {
        "name": "法国",
        "lng": 0.94906,
        "lat": 46.5487,
        "frequency": 0.0204
    },
    "115": {
        "name": "法属圭亚那",
        "lng": -52.58816,
        "lat": 4.91433,
        "frequency": 0.00053
    },
    "116": {
        "name": "法属波利尼西亚",
        "lng": -150.0739,
        "lat": -17.28475,
        "frequency": 0.0005
    },
    "117": {
        "name": "法罗群岛",
        "lng": -6.85378,
        "lat": 62.03296,
        "frequency": 0.00253
    },
    "118": {
        "name": "波兰",
        "lng": 19.51417,
        "lat": 51.64634,
        "frequency": 0.01593
    },
    "119": {
        "name": "波多黎各",
        "lng": -66.39994,
        "lat": 18.26534,
        "frequency": 0.00153
    },
    "120": {
        "name": "泰国",
        "lng": 101.37966,
        "lat": 14.76532,
        "frequency": 0.02147
    },
    "121": {
        "name": "津巴布韦",
        "lng": 30.2698,
        "lat": -18.61581,
        "frequency": 0.001
    },
    "122": {
        "name": "洪都拉斯",
        "lng": -87.78993,
        "lat": 15.02274,
        "frequency": 0.00117
    },
    "123": {
        "name": "海地",
        "lng": -72.65623,
        "lat": 19.19506,
        "frequency": 0.00123
    },
    "124": {
        "name": "澳大利亚",
        "lng": 140.94272,
        "lat": -31.65551,
        "frequency": 0.02463
    },
    "125": {
        "name": "爱尔兰",
        "lng": -7.91285,
        "lat": 53.28244,
        "frequency": 0.00957
    },
    "126": {
        "name": "爱沙尼亚",
        "lng": 25.35654,
        "lat": 58.68593,
        "frequency": 0.00613
    },
    "127": {
        "name": "牙买加",
        "lng": -77.29699,
        "lat": 18.18508,
        "frequency": 0.0004
    },
    "128": {
        "name": "特立尼达和多巴哥",
        "lng": -61.41857,
        "lat": 10.59816,
        "frequency": 0.00033
    },
    "129": {
        "name": "玻利维亚",
        "lng": -65.84437,
        "lat": -17.90602,
        "frequency": 0.00373
    },
    "130": {
        "name": "瑞典",
        "lng": 15.81868,
        "lat": 59.87112,
        "frequency": 0.01847
    },
    "131": {
        "name": "瑞士",
        "lng": 8.03152,
        "lat": 46.99699,
        "frequency": 0.0054
    },
    "132": {
        "name": "瓜德罗普",
        "lng": -61.54424,
        "lat": 16.1355,
        "frequency": 0.0004
    },
    "133": {
        "name": "留尼汪",
        "lng": 55.4909,
        "lat": -21.15399,
        "frequency": 0.00077
    },
    "134": {
        "name": "百慕大",
        "lng": -64.75835,
        "lat": 32.31204,
        "frequency": 0.00073
    },
    "135": {
        "name": "科威特",
        "lng": 48.01358,
        "lat": 29.15524,
        "frequency": 0.00073
    },
    "136": {
        "name": "科特迪瓦",
        "lng": -4.9049,
        "lat": 6.06798,
        "frequency": 0.00053
    },
    "137": {
        "name": "秘鲁",
        "lng": -75.23049,
        "lat": -11.20683,
        "frequency": 0.01557
    },
    "138": {
        "name": "突尼斯",
        "lng": 10.47299,
        "lat": 35.39268,
        "frequency": 0.00933
    },
    "139": {
        "name": "立陶宛",
        "lng": 24.09907,
        "lat": 55.18285,
        "frequency": 0.00647
    },
    "140": {
        "name": "约旦",
        "lng": 35.6602,
        "lat": 31.15389,
        "frequency": 0.00507
    },
    "141": {
        "name": "纳米比亚",
        "lng": 17.58634,
        "lat": -22.62202,
        "frequency": 0.00073
    },
    "142": {
        "name": "缅甸",
        "lng": 96.2444,
        "lat": 20.05841,
        "frequency": 0.00197
    },
    "143": {
        "name": "罗马尼亚",
        "lng": 24.91509,
        "lat": 45.7166,
        "frequency": 0.0145
    },
    "144": {
        "name": "美国",
        "lng": -90.69932,
        "lat": 37.86207,
        "frequency": 0.03873
    },
    "145": {
        "name": "美属萨摩亚",
        "lng": -170.40705,
        "lat": -14.27697,
        "frequency": 0.00073
    },
    "146": {
        "name": "老挝",
        "lng": 103.33361,
        "lat": 17.81837,
        "frequency": 0.00293
    },
    "147": {
        "name": "肯尼亚",
        "lng": 37.01835,
        "lat": -0.59061,
        "frequency": 0.01277
    },
    "148": {
        "name": "芬兰",
        "lng": 25.65041,
        "lat": 62.94154,
        "frequency": 0.0109
    },
    "149": {
        "name": "苏丹",
        "lng": 32.83353,
        "lat": 15.58785,
        "frequency": 0.00153
    },
    "150": {
        "name": "苏里南",
        "lng": -56.11687,
        "lat": 5.82747,
        "frequency": 0.00113
    },
    "151": {
        "name": "英国",
        "lng": -2.78649,
        "lat": 52.84924,
        "frequency": 0.01693
    },
    "152": {
        "name": "荷兰",
        "lng": 5.27728,
        "lat": 51.99728,
        "frequency": 0.00803
    },
    "153": {
        "name": "莫桑比克",
        "lng": 33.36368,
        "lat": -22.57515,
        "frequency": 0.00037
    },
    "154": {
        "name": "莱索托",
        "lng": 28.00684,
        "lat": -29.44282,
        "frequency": 0.00247
    },
    "155": {
        "name": "菲律宾",
        "lng": 122.77152,
        "lat": 11.9949,
        "frequency": 0.02017
    },
    "156": {
        "name": "萨尔瓦多",
        "lng": -88.92126,
        "lat": 13.73923,
        "frequency": 0.00047
    },
    "157": {
        "name": "萨摩亚",
        "lng": -171.98212,
        "lat": -13.80359,
        "frequency": 0.00187
    },
    "158": {
        "name": "葡萄牙",
        "lng": -11.45763,
        "lat": 38.93455,
        "frequency": 0.00837
    },
    "159": {
        "name": "蒙古",
        "lng": 104.79731,
        "lat": 47.64466,
        "frequency": 0.00287
    },
    "160": {
        "name": "西班牙",
        "lng": -4.21748,
        "lat": 39.66692,
        "frequency": 0.00983
    },
    "161": {
        "name": "贝宁",
        "lng": 2.48027,
        "lat": 7.61677,
        "frequency": 0.00037
    },
    "162": {
        "name": "赞比亚",
        "lng": 28.57431,
        "lat": -14.81601,
        "frequency": 0.0006
    },
    "163": {
        "name": "越南",
        "lng": 106.26228,
        "lat": 16.36158,
        "frequency": 0.00257
    },
    "164": {
        "name": "阿塞拜疆",
        "lng": 48.15799,
        "lat": 40.19339,
        "frequency": 0.0007
    },
    "165": {
        "name": "阿富汗",
        "lng": 67.92349,
        "lat": 34.36762,
        "frequency": 0.00157
    },
    "166": {
        "name": "阿尔及利亚",
        "lng": 2.87318,
        "lat": 35.53962,
        "frequency": 0.00217
    },
    "167": {
        "name": "阿尔巴尼亚",
        "lng": 19.94699,
        "lat": 41.21495,
        "frequency": 0.00433
    },
    "168": {
        "name": "阿曼",
        "lng": 56.7634,
        "lat": 20.37461,
        "frequency": 0.0003
    },
    "169": {
        "name": "阿根廷",
        "lng": -64.03096,
        "lat": -34.44671,
        "frequency": 0.02383
    },
    "170": {
        "name": "阿联酋",
        "lng": 55.70112,
        "lat": 25.21928,
        "frequency": 0.00667
    },
    "171": {
        "name": "阿鲁巴",
        "lng": -70.00624,
        "lat": 12.53802,
        "frequency": 0.00053
    },
    "172": {
        "name": "韩国",
        "lng": 127.87834,
        "lat": 36.35163,
        "frequency": 0.01
    },
    "173": {
        "name": "马尔代夫",
        "lng": 73.35146,
        "lat": 3.70718,
        "frequency": 0.0005
    },
    "174": {
        "name": "马拉维",
        "lng": 34.38111,
        "lat": -13.81605,
        "frequency": 0.00053
    },
    "175": {
        "name": "马提尼克",
        "lng": -61.04499,
        "lat": 14.68982,
        "frequency": 0.0005
    },
    "176": {
        "name": "马来西亚",
        "lng": 105.74285,
        "lat": 3.95842,
        "frequency": 0.01773
    },
    "177": {
        "name": "马约特",
        "lng": 44.93236,
        "lat": -12.53946,
        "frequency": 0.0005
    },
    "178": {
        "name": "马耳他",
        "lng": 14.41421,
        "lat": 35.91471,
        "frequency": 0.0026
    },
    "179": {
        "name": "黑山",
        "lng": 19.13488,
        "lat": 42.68811,
        "frequency": 0.00387
    }
}